,City,Latitude,Longitude,Max Temperature,Humidity,Cloudiness,Wind Speed,Country,Date
0,Punta Arenas,-53.15,-70.9167,4.06,75,0,4.63,CL,1624066728
1,Hasaki,35.7333,140.8333,21.27,84,100,4.81,JP,1624066831
2,Shirokiy,49.758,129.523,19.4,70,95,8.49,RU,1624066846
3,Puerto Escondido,15.85,-97.0667,26.46,57,90,0.0,MX,1624066846
4,Nikolskoye,59.7035,30.7861,17.94,80,0,2.29,RU,1624066805
5,Visby,57.6409,18.296,18.25,82,6,2.57,SE,1624066847
6,Pevek,69.7008,170.3133,0.39,98,100,1.38,RU,1624066761
7,Upernavik,72.7868,-56.1549,1.72,69,6,2.98,GL,1624066847
8,Piaçabuçu,-10.4056,-36.4344,24.48,71,76,4.92,BR,1624066774
9,Esperance,-33.8667,121.9,10.91,62,3,7.0,AU,1624066764
10,Pokhara,28.2333,83.9833,21.69,89,100,1.08,NP,1624066742
11,Camaná,-16.6228,-72.7111,17.53,90,23,3.74,PE,1624066848
12,Mar del Plata,-38.0023,-57.5575,7.29,54,75,1.34,AR,1624066630
13,Fortuna,40.5982,-124.1573,18.38,67,1,1.34,US,1624066796
14,Ushuaia,-54.8,-68.3,3.81,93,75,3.09,AR,1624066730
15,Tasiilaq,65.6145,-37.6368,5.09,70,1,2.06,GL,1624066729
16,Vila Velha,-20.3297,-40.2925,18.97,94,40,1.54,BR,1624066848
17,Port Hawkesbury,45.6169,-61.3485,14.38,78,77,1.34,CA,1624066849
18,Busselton,-33.65,115.3333,14.47,67,100,6.27,AU,1624066731
19,Mahébourg,-20.4081,57.7,20.14,88,40,0.51,MU,1624066849
20,Longyearbyen,78.2186,15.6401,3.91,70,75,9.77,SJ,1624066735
21,San Carlos,9.6612,-68.5827,23.0,96,99,0.9,VE,1624066850
22,Petropavlovsk-Kamchatskiy,53.0452,158.6483,12.33,62,75,1.0,RU,1624066850
23,Bambous Virieux,-20.3428,57.7575,20.12,88,40,0.51,MU,1624066773
24,Ambilobe,-13.2,49.05,19.19,91,71,1.29,MG,1624066850
25,May Pen,17.9645,-77.2451,28.56,79,43,1.52,JM,1624066851
26,Tuktoyaktuk,69.4541,-133.0374,16.0,41,40,6.69,CA,1624066740
27,Jamestown,42.097,-79.2353,23.62,73,90,6.17,US,1624066630
28,Samarai,-10.6167,150.6667,26.48,74,100,5.8,PG,1624066788
29,Mataura,-46.1927,168.8643,8.6,67,18,2.05,NZ,1624066736
30,Hilo,19.7297,-155.09,26.0,71,20,3.6,US,1624066756
31,Atuona,-9.8,-139.0333,26.0,79,26,9.61,PF,1624066741
32,Kobryn,52.2138,24.3564,15.53,91,7,2.41,BY,1624066852
33,Río Gallegos,-51.6226,-69.2181,-1.97,86,0,0.51,AR,1624066852
34,Tuy Hoa,13.0833,109.3,32.4,55,26,4.61,VN,1624066852
35,Iralaya,15.0,-83.2333,27.17,82,100,4.84,HN,1624066852
36,Hermanus,-34.4187,19.2345,13.83,65,7,2.85,ZA,1624066737
37,Albany,42.6001,-73.9662,23.97,67,100,2.6,US,1624066722
38,Peshawar,34.008,71.5785,26.08,47,0,2.06,PK,1624066762
39,Port Alfred,-33.5906,26.891,13.74,83,6,5.86,ZA,1624066737
40,Thompson,55.7435,-97.8558,19.09,34,20,4.12,CA,1624066732
41,San Patricio,28.017,-97.5169,29.97,67,74,3.25,US,1624066759
42,Bluff,-46.6,168.3333,8.78,66,0,4.66,NZ,1624066750
43,Egvekinot,66.3167,-179.1667,4.26,79,87,2.79,RU,1624066832
44,Rikitea,-23.1203,-134.9692,23.8,77,8,10.63,PF,1624066728
45,Kapaa,22.0752,-159.319,28.99,74,20,0.89,US,1624066750
46,Norman Wells,65.282,-126.8329,25.02,22,40,2.57,CA,1624066749
47,Denpasar,-8.65,115.2167,27.81,83,20,1.03,ID,1624066779
48,Iqaluit,63.7506,-68.5145,-0.15,100,90,1.34,CA,1624066729
49,Mizdah,31.4451,12.9801,21.66,58,0,2.61,LY,1624066854
50,Boldumsaz,42.1282,59.671,24.03,31,38,5.33,TM,1624066854
51,George Town,5.4112,100.3354,29.38,82,20,0.45,MY,1624066567
52,Saint George,37.1041,-113.5841,43.33,13,1,3.13,US,1624066527
53,Avarua,-21.2078,-159.775,25.03,83,75,8.23,CK,1624066738
54,San Policarpo,12.1791,125.5072,29.88,67,100,2.79,PH,1624066855
55,Makkah al Mukarramah,21.4267,39.8261,29.8,30,11,1.83,SA,1624066828
56,Baghdad,33.3406,44.4009,27.95,28,0,6.17,IQ,1624066821
57,Kavieng,-2.5744,150.7967,27.78,71,100,2.48,PG,1624066753
58,Lebu,-37.6167,-73.65,9.21,80,0,1.0,CL,1624066746
59,Natchitoches,31.7668,-93.1335,29.47,65,90,3.09,US,1624066856
60,Mossamedes,-15.1961,12.1522,20.74,62,5,3.57,AO,1624066751
61,Cape Town,-33.9258,18.4232,13.95,93,0,2.06,ZA,1624066612
62,Butaritari,3.0707,172.7902,28.29,70,25,2.36,KI,1624066726
63,Kiama,-34.6833,150.8667,15.71,82,100,3.58,AU,1624066856
64,Vaini,-21.2,-175.2,26.09,83,40,3.6,TO,1624066742
65,Airai,-8.9266,125.4092,22.08,51,97,1.93,TL,1624066735
66,Ichinoseki,38.9167,141.1333,18.36,92,100,1.9,JP,1624066857
67,Tari,12.4086,4.4914,28.15,51,100,4.16,NG,1624066857
68,Clyde River,70.4692,-68.5914,0.13,100,90,5.14,CA,1624066857
69,Faanui,-16.4833,-151.75,27.05,76,12,6.11,PF,1624066858
70,Saskylakh,71.9167,114.0833,25.08,35,48,5.69,RU,1624066821
71,Bac Lieu,9.285,105.7244,29.82,68,96,4.57,VN,1624066858
72,Saint Paul Harbor,57.79,-152.4072,9.73,87,90,7.72,US,1624066739
73,Kutum,14.2,24.6667,24.43,46,99,1.9,SD,1624066858
74,Lufilufi,-13.8745,-171.5986,26.88,77,97,4.13,WS,1624066859
75,Port Macquarie,-31.4333,152.9167,19.38,45,40,7.72,AU,1624066763
76,Ponta Delgada,37.7333,-25.6667,16.4,82,20,2.57,PT,1624066859
77,Watsa,3.0372,29.5355,15.68,97,100,1.0,CD,1624066859
78,Boguchany,58.3814,97.4531,21.64,66,38,1.21,RU,1624066860
79,São Filipe,14.8961,-24.4956,22.48,83,4,3.07,CV,1624066733
80,North Port,27.0442,-82.2359,29.02,81,100,5.18,US,1624066860
81,Hithadhoo,-0.6,73.0833,28.57,72,100,4.88,MV,1624066740
82,Ust-Maya,60.4167,134.5333,23.47,29,97,3.72,RU,1624066862
83,Malé,4.1748,73.5089,28.97,84,75,6.69,MV,1624066862
84,Comodoro Rivadavia,-45.8667,-67.5,1.92,75,0,3.6,AR,1624066862
85,Hongjiang,27.11,109.9956,28.81,85,100,1.12,CN,1624066863
86,Aden,12.7794,45.0367,29.98,80,98,6.48,YE,1624066863
87,Te Anau,-45.4167,167.7167,6.64,63,85,0.09,NZ,1624066731
88,Bredasdorp,-34.5322,20.0403,11.27,93,10,1.54,ZA,1624066800
89,Bilibino,68.0546,166.4372,9.67,54,87,6.58,RU,1624066863
90,Constitución,-35.3333,-72.4167,10.56,89,0,1.97,CL,1624066774
91,Ribeira Grande,38.5167,-28.7,18.85,79,7,2.7,PT,1624066758
92,Pyapon,16.2833,95.6833,26.22,84,100,2.1,MM,1624066864
93,Asău,46.4333,26.4,16.89,96,98,2.52,RO,1624066778
94,Provideniya,64.3833,-173.3,11.42,65,96,2.9,RU,1624066784
95,Burnie,-41.0667,145.9167,12.9,64,4,0.21,AU,1624066864
96,Umeå,63.8284,20.2597,9.95,81,0,2.57,SE,1624066865
97,Narsaq,60.9167,-46.05,7.12,75,100,1.78,GL,1624066771
98,Cabedelo,-6.9811,-34.8339,23.37,91,25,5.3,BR,1624066768
99,Sokoni,-6.4333,39.55,24.92,74,77,8.0,TZ,1624066865
100,Bosilegrad,42.5011,22.4724,13.85,93,14,2.51,RS,1624066866
101,Belaya Gora,68.5333,146.4167,24.43,33,5,0.07,RU,1624066866
102,Broome,42.2506,-75.833,23.21,58,90,3.13,US,1624066745
103,Panguna,-6.3164,155.4848,25.38,78,96,1.24,PG,1624066866
104,Port Lincoln,-34.7333,135.8667,13.59,59,62,3.18,AU,1624066733
105,Llano de Piedra,7.6667,-80.5667,21.82,99,100,0.69,PA,1624066867
106,Yellowknife,62.456,-114.3525,21.29,28,20,9.26,CA,1624066744
107,Sabha,27.0377,14.4283,28.44,25,0,3.85,LY,1624066867
108,Kapit,2.0167,112.9333,23.4,99,100,0.69,MY,1624066867
109,Ossora,59.2353,163.0719,6.9,90,100,1.93,RU,1624066868
110,Nesterov,54.6306,22.5714,16.14,88,30,3.06,RU,1624066868
111,Cayenne,4.9333,-52.3333,26.72,85,20,1.03,GF,1624066868
112,San Jose,37.3394,-121.895,38.87,36,20,2.24,US,1624066651
113,Omsukchan,62.5333,155.8,15.12,39,99,5.63,RU,1624066869
114,Ust'-Karsk,52.7011,118.8077,13.58,94,100,3.93,RU,1624066869
115,Arroyo de la Encomienda,41.6096,-4.7969,13.18,96,0,0.51,ES,1624066869
116,Arraial do Cabo,-22.9661,-42.0278,21.12,70,100,5.34,BR,1624066752
117,Barrow,71.2906,-156.7887,14.01,58,1,5.14,US,1624066778
118,New Norfolk,-42.7826,147.0587,13.14,83,36,0.89,AU,1624066743
119,Souillac,-20.5167,57.5167,20.2,88,40,0.51,MU,1624066870
120,Amahai,-3.3333,128.9167,27.87,73,100,2.27,ID,1624066870
121,Krasnogorsk,55.8225,37.3181,17.14,67,0,2.0,RU,1624066871
122,Hobart,-42.8794,147.3294,13.34,87,75,0.45,AU,1624066512
123,Qaanaaq,77.484,-69.3632,-0.54,75,29,2.12,GL,1624066734
124,Shugurovo,54.5083,52.1326,13.27,78,80,1.31,RU,1624066871
125,Vestmannaeyjar,63.4427,-20.2734,6.95,70,100,2.76,IS,1624066872
126,Bethel,41.3712,-73.414,23.88,65,1,4.12,US,1624066755
127,Talnakh,69.4865,88.3972,5.62,89,100,4.65,RU,1624066764
128,Kumul,42.8,93.45,30.92,8,100,3.88,CN,1624066872
129,Raudeberg,61.9875,5.1352,9.93,80,100,6.22,NO,1624066872
130,Mahabalipuram,12.6264,80.1722,29.47,55,100,4.26,IN,1624066873
131,Nabire,-3.3667,135.4833,26.76,79,98,0.11,ID,1624066873
132,Klaksvík,62.2266,-6.589,8.51,89,89,6.37,FO,1624066807
133,Dikson,73.5069,80.5464,0.18,91,32,6.99,RU,1624066759
134,Gazli,40.1333,63.45,29.82,11,0,3.07,UZ,1624066873
135,Kahului,20.8947,-156.47,30.01,65,20,10.8,US,1624066666
136,Morondava,-20.2833,44.2833,18.2,80,6,3.41,MG,1624066874
137,Kontagora,10.3999,5.4695,24.26,82,67,1.74,NG,1624066874
138,Carballo,43.213,-8.691,14.83,92,100,2.88,ES,1624066874
139,Puerto Ayora,-0.7393,-90.3518,23.08,95,47,1.79,EC,1624066733
140,Vardø,70.3705,31.1107,6.99,93,40,7.72,NO,1624066795
141,Austin,30.2672,-97.7431,31.81,52,1,0.89,US,1624066263
142,Līsakovsk,52.5369,62.4936,13.13,47,7,4.25,KZ,1624066875
143,Montepuez,-13.1256,38.9997,15.46,93,8,2.98,MZ,1624066875
144,Nanortalik,60.1432,-45.2371,4.52,74,100,4.43,GL,1624066735
145,Geraldton,-28.7667,114.6,11.23,66,0,7.2,AU,1624066768
146,Vanimo,-2.6741,141.3028,28.07,74,94,1.39,PG,1624066797
147,Kinsale,51.7075,-8.5306,10.65,76,75,3.09,IE,1624066876
148,Nanhai,30.1282,111.7784,20.75,94,100,1.76,CN,1624066876
149,Dingle,10.9995,122.6711,30.23,68,99,3.38,PH,1624066791
150,Bara,10.3744,10.7288,24.34,72,100,2.99,NG,1624066825
151,Izhmorskiy,56.194,86.6414,22.03,73,99,4.7,RU,1624066877
152,Malakal,9.5334,31.6605,23.58,76,90,1.19,SS,1624066877
153,Port Blair,11.6667,92.75,28.84,76,100,4.59,IN,1624066793
154,Huarmey,-10.0681,-78.1522,19.42,85,60,4.21,PE,1624066878
155,Lavrentiya,65.5833,-171.0,9.3,68,64,2.51,RU,1624066828
156,Taoudenni,22.6783,-3.9836,36.07,10,96,4.16,ML,1624066807
157,Leningradskiy,69.3833,178.4167,4.48,85,95,3.11,RU,1624066762
158,Mayo,38.8876,-76.5119,26.32,82,1,0.45,US,1624066816
159,Boueni,-12.9025,45.0761,25.99,68,27,9.1,YT,1624066878
160,Riyadh,24.6877,46.7219,28.03,15,0,3.6,SA,1624066787
161,Conakry,9.538,-13.6773,24.04,88,75,3.09,GN,1624066673
162,Bandarbeyla,9.4942,50.8122,26.17,71,100,10.33,SO,1624066879
163,Barzas,55.7167,86.3167,20.13,69,97,4.46,RU,1624066879
164,Kathmandu,27.7167,85.3167,22.12,88,75,1.54,NP,1624066879
165,Santo Antônio do Amparo,-20.9464,-44.9189,12.11,88,9,2.31,BR,1624066880
166,Kaitangata,-46.2817,169.8464,9.96,65,40,3.04,NZ,1624066754
167,Garissa,-0.4536,39.6401,22.72,77,92,6.99,KE,1624066843
168,Pisco,-13.7,-76.2167,18.03,82,0,3.09,PE,1624066736
169,Chui,-33.6971,-53.4616,9.58,89,6,2.4,UY,1624066747
170,Tautira,-17.7333,-149.15,30.01,83,13,6.25,PF,1624066822
171,Inhambane,-23.865,35.3833,19.81,76,22,5.87,MZ,1624066792
172,Khatanga,71.9667,102.5,17.88,60,80,6.5,RU,1624066740
173,Kudahuvadhoo,2.6708,72.8944,28.86,71,41,5.09,MV,1624066881
174,Okha,53.5739,142.9478,12.63,57,92,3.26,RU,1624066881
175,Paamiut,61.994,-49.6678,5.62,77,100,8.79,GL,1624066832
176,Beringovskiy,63.05,179.3167,8.25,76,100,3.25,RU,1624066881
177,Buraidah,26.326,43.975,23.25,15,0,2.36,SA,1624066881
178,Marawi,7.9986,124.2928,26.77,65,100,1.12,PH,1624066882
179,Abū Zabad,12.35,29.25,25.84,69,68,5.03,SD,1624066882
180,Xiaoyi,34.6178,109.703,25.34,45,100,0.52,CN,1624066882
181,Guerrero Negro,27.9769,-114.0611,19.28,79,0,8.21,MX,1624066883
182,Sibu,2.3,111.8167,27.17,83,40,1.03,MY,1624066883
183,Port-Gentil,-0.7193,8.7815,25.74,82,45,5.8,GA,1624066883
184,Castro,-24.7911,-50.0119,11.71,98,100,4.22,BR,1624066755
185,Arenápolis,-14.4503,-56.8461,20.33,56,100,0.6,BR,1624066884
186,Touros,-5.1989,-35.4608,24.5,92,16,4.34,BR,1624066794
187,Coruripe,-10.1256,-36.1756,24.21,72,98,5.09,BR,1624066884
188,Saint Anthony,45.0205,-93.218,30.53,30,1,0.45,US,1624066884
189,Esim,4.8699,-2.2405,25.86,79,100,4.07,GH,1624066884
190,Sayyan,15.1718,44.3244,17.7,23,36,2.34,YE,1624066806
191,Portland,45.5234,-122.6762,26.99,46,20,0.89,US,1624066578
192,Kholmogory,64.2229,41.656,17.06,63,84,4.51,RU,1624066885
193,Sioux Lookout,50.1001,-91.917,13.21,71,75,4.63,CA,1624066885
194,Lompoc,34.6391,-120.4579,24.2,83,1,5.66,US,1624066747
195,Katsuura,35.1333,140.3,22.33,83,100,5.15,JP,1624066886
196,Meulaboh,4.1363,96.1285,27.29,74,68,1.22,ID,1624066886
197,Chokwé,-24.5333,32.9833,16.24,94,46,3.11,MZ,1624066886
198,Forrest City,35.0081,-90.7898,27.92,65,93,3.42,US,1624066887
199,Paragominas,-2.9667,-47.4833,21.6,99,100,1.59,BR,1624066887
200,Yuci,37.6803,112.7319,20.86,49,0,2.0,CN,1624066887
201,Dwārka,22.2394,68.9678,29.55,69,98,7.02,IN,1624066888
202,Hofn,64.2539,-15.2082,6.85,76,29,1.07,IS,1624066888
203,Bereslavka,48.6254,44.0449,17.43,61,7,6.52,RU,1624066888
204,İskele,39.484,26.9278,21.05,78,75,2.57,TR,1624066889
205,Yar-Sale,66.8333,70.8333,8.69,60,94,2.93,RU,1624066889
206,Bereket,39.2446,55.5154,26.54,51,0,3.36,TM,1624066889
207,Havelock,34.8791,-76.9013,26.99,71,20,3.09,US,1624066889
208,Baiyin,36.5583,104.2081,19.49,31,94,1.8,CN,1624066890
209,Bereda,43.2686,-7.5406,14.67,100,100,1.24,ES,1624066890
210,Menongue,-14.6585,17.691,8.74,52,1,2.15,AO,1624066890
211,Avanigadda,16.0215,80.9181,29.08,54,100,6.47,IN,1624066891
212,Jambi City,-1.6,103.6167,24.29,89,100,1.42,ID,1624066732
213,Srednekolymsk,67.45,153.6833,16.1,35,82,3.89,RU,1624066891
214,Pacific Grove,36.6177,-121.9166,29.34,80,1,2.68,US,1624066761
215,Chokurdakh,70.6333,147.9167,20.0,34,13,3.0,RU,1624066747
216,San Agustín Acasaguastlán,14.95,-89.9667,25.64,94,98,0.95,GT,1624066892
217,Bathsheba,13.2167,-59.5167,26.34,73,40,5.66,BB,1624066892
218,Saint-Philippe,-21.3585,55.7679,19.77,78,92,3.77,RE,1624066800
219,Kitzingen,49.7333,10.1667,21.75,83,99,1.48,DE,1624066892
220,Bekovo,52.4663,43.712,12.48,85,48,2.42,RU,1624066893
221,Langsa,4.4683,97.9683,27.0,79,96,1.17,ID,1624066893
222,Gal'bshtadt,53.2264,78.9845,12.57,88,100,6.43,RU,1624066893
223,Tutóia,-2.7619,-42.2744,25.37,85,10,5.24,BR,1624066894
224,Sinnamary,5.3833,-52.95,25.56,86,15,4.43,GF,1624066894
225,Lagoa,39.05,-27.9833,18.05,82,6,4.51,PT,1624066894
226,Ilulissat,69.2167,-51.1,6.01,75,9,1.54,GL,1624066822
227,Kieta,-6.2167,155.6333,28.7,73,90,2.3,PG,1624066895
228,Bengkulu,-3.8004,102.2655,27.3,69,99,1.02,ID,1624066895
229,Buala,-8.145,159.5921,29.07,73,100,3.32,SB,1624066895
230,Kibondo,-3.5864,30.7203,16.46,82,100,1.25,TZ,1624066895
231,Bata,1.8639,9.7658,24.92,100,40,0.0,GQ,1624066896
232,Waipawa,-41.4122,175.5153,9.46,87,100,2.18,NZ,1624066896
233,Hong Kong,22.2855,114.1577,32.76,77,100,4.02,HK,1624066671
234,Oslo,59.9127,10.7461,16.68,1,100,0.97,NO,1624066849
235,Sur,22.5667,59.5289,28.51,66,96,1.09,OM,1624066748
236,Upington,-28.4478,21.2561,9.21,53,0,1.54,ZA,1624066897
237,Ancud,-41.8697,-73.8203,6.24,80,0,2.04,CL,1624066897
238,Tiksi,71.6872,128.8694,21.18,31,5,6.37,RU,1624066731
239,Mackay,-21.15,149.2,20.02,42,12,5.14,AU,1624066794
240,Laas,46.6166,10.7002,20.49,87,100,0.8,IT,1624066827
241,Hamilton,39.1834,-84.5333,23.66,88,90,1.79,US,1624066897
242,Khandyga,62.6667,135.6,28.49,24,79,1.1,RU,1624066898
243,Pio IX,-6.8375,-40.5792,21.97,50,0,3.68,BR,1624066898
244,Saint-Paul,-21.0096,55.2707,19.06,88,5,1.34,RE,1624066898
245,Alice Springs,-23.7,133.8833,10.75,58,40,4.63,AU,1624066899
246,Şuraabad,40.8192,49.4687,25.1,60,1,5.89,AZ,1624066899
247,Margate,51.3813,1.3862,14.06,97,100,0.89,GB,1624066899
248,Port Elizabeth,-33.918,25.5701,10.16,93,0,2.06,ZA,1624066623
249,Tual,-5.6667,132.75,27.19,79,95,9.6,ID,1624066751
250,Saint-Augustin,51.226,-58.6502,11.37,82,22,5.16,CA,1624066827
251,Port Hardy,50.6996,-127.4199,15.1,67,75,5.14,CA,1624066825
252,Qaqortoq,60.7167,-46.0333,7.28,75,100,0.73,GL,1624066730
253,Pacifica,37.6138,-122.4869,37.52,70,1,0.89,US,1624066900
254,Torbay,47.6666,-52.7314,16.43,63,75,3.6,CA,1624066746
255,Andenes,69.3143,16.1194,7.99,93,100,5.66,NO,1624066900
256,Isangel,-19.55,169.2667,29.06,74,20,2.57,VU,1624066783
257,Udala,43.0778,-2.5125,16.18,98,100,0.67,ES,1624066901
258,Hualmay,-11.0964,-77.6139,18.54,87,22,4.63,PE,1624066760
259,Faya,18.3851,42.4509,21.06,37,58,1.18,SA,1624066771
260,Loandjili,-4.7561,11.8578,24.06,94,75,3.6,CG,1624066901
261,Mahon,39.8885,4.2658,23.31,94,0,1.54,ES,1624066902
262,Kirkwall,58.9848,-2.9587,9.19,87,99,0.0,GB,1624066902
263,Muros,42.7762,-9.0603,15.13,83,90,4.5,ES,1624066902
264,Jefferson City,38.5767,-92.1735,33.95,46,1,3.6,US,1624066699
265,Mabaruma,8.2,-59.7833,23.24,98,61,1.03,GY,1624066902
266,Pangnirtung,66.1451,-65.7125,6.33,65,98,1.3,CA,1624066903
267,Bima,-8.4667,118.7167,30.84,59,91,1.83,ID,1624066903
268,García,25.8167,-100.5833,29.92,49,1,5.34,MX,1624066903
269,Russell,32.3502,-85.1999,26.84,79,75,0.0,US,1624066904
270,Sistranda,63.7256,8.834,9.94,75,100,1.3,NO,1624066904
271,Puerto Ayacucho,5.6639,-67.6236,24.11,90,57,1.55,VE,1624066904
272,Kipushi,-11.7667,27.2333,9.99,66,34,2.13,CD,1624066905
273,Sitka,57.0531,-135.33,12.94,71,75,3.09,US,1624066732
274,Bagdarin,54.4333,113.6,17.1,50,100,2.92,RU,1624066905
275,Tazovsky,67.4667,78.7,4.97,70,100,4.69,RU,1624066905
276,Leeds,53.7964,-1.5477,12.6,89,100,1.13,GB,1624066906
277,Minot,48.2325,-101.2963,22.55,43,1,5.66,US,1624066906
278,Benxi,41.2886,123.765,24.18,43,42,1.0,CN,1624066906
279,San Cristobal,7.7669,-72.225,18.69,98,67,1.76,VE,1624066906
280,East London,-33.0153,27.9116,15.61,80,20,5.25,ZA,1624066627
281,Arrondissement de Toul,48.6667,5.9167,21.77,85,0,2.06,FR,1624066907
282,Darhan,49.4867,105.9228,19.98,37,6,1.36,MN,1624066907
283,Cherskiy,68.75,161.3,8.48,59,98,2.02,RU,1624066756
284,Corrente,-3.7367,-43.3394,21.66,99,66,1.23,BR,1624066907
285,Gizo Government Station,-8.103,156.8419,29.04,69,99,2.44,SB,1624066908
286,Cidreira,-30.1811,-50.2056,14.27,83,9,5.09,BR,1624066759
287,Shimokizukuri,40.8061,140.3861,23.47,67,100,3.57,JP,1624066908
288,Nishihara,26.1842,127.7558,29.82,87,75,5.66,JP,1624066908
289,Gohpur,26.8833,93.6333,28.09,81,60,1.57,IN,1624066909
290,Nedumangād,8.6,77.0,26.6,89,75,1.54,IN,1624066909
291,Cabo San Lucas,22.8909,-109.9124,35.84,45,1,4.12,MX,1624066533
292,Udachny,66.4167,112.4,25.53,27,85,2.47,RU,1624066910
293,Elko,41.0002,-115.5012,31.01,16,100,4.47,US,1624066910
294,Kigoma,-4.8769,29.6267,24.05,66,100,1.6,TZ,1624066910
295,Necochea,-38.5473,-58.7368,5.02,80,97,2.72,AR,1624066910
296,Manokwari,-0.8667,134.0833,28.44,69,30,2.13,ID,1624066496
297,Sambava,-14.2667,50.1667,21.55,81,17,4.11,MG,1624066911
298,Balyqshy,47.0667,51.8667,18.0,39,0,4.0,KZ,1624066911
299,Grindavik,63.8424,-22.4338,6.97,87,90,2.06,IS,1624066758
300,Okahandja,-21.9833,16.9167,15.17,41,63,4.46,NA,1624066912
301,Suratgarh,29.3167,73.9,33.18,46,1,2.82,IN,1624066912
302,Khovu-Aksy,51.1333,93.6,20.01,43,6,0.74,RU,1624066912
303,‘Āhuimanu,21.4447,-157.8378,29.84,57,40,5.14,US,1624066913
304,Kāmyārān,34.7956,46.9355,17.97,38,0,3.33,IR,1624066913
305,Eagle Pass,28.7091,-100.4995,33.47,38,20,6.91,US,1624066913
306,Ulladulla,-35.35,150.4667,15.5,75,97,11.54,AU,1624066913
307,Severo-Kuril'sk,50.6789,156.125,7.08,86,84,1.49,RU,1624066733
308,Salalah,17.0151,54.0924,27.05,89,90,3.09,OM,1624066914
309,Pangody,65.85,74.4859,8.3,55,99,4.81,RU,1624066728
310,Starosubkhangulovo,53.1031,57.4423,12.15,66,31,0.92,RU,1624066914
311,Monticello,45.3055,-93.7941,29.89,33,1,0.0,US,1624066914
312,Marrakesh,31.6315,-8.0083,17.04,67,75,4.12,MA,1624066915
313,Khovd,48.0056,91.6419,20.37,34,0,1.52,MN,1624066915
314,Marsaxlokk,35.8419,14.5431,22.27,88,0,2.06,MT,1624066915
315,Galesong,-5.3166,119.3661,28.01,68,58,0.26,ID,1624066825
316,Brae,60.3964,-1.353,5.95,73,98,0.8,GB,1624066916
317,Isabela,6.7085,121.9711,29.03,65,94,0.93,PH,1624066916
318,Provincie Utrecht,52.0,5.25,21.07,70,16,2.68,NL,1624066916
319,Saldanha,-33.0117,17.9442,14.71,58,3,3.9,ZA,1624066788
320,Marovoay,-16.1,46.6333,19.08,80,14,1.45,MG,1624066917
321,Whitehorse,60.7161,-135.0538,20.43,37,75,5.14,CA,1624066917
322,Auki,-8.7676,160.7034,29.85,62,100,1.16,SB,1624066917
323,Tezu,27.9167,96.1667,24.33,98,100,1.44,IN,1624066918
324,Kedrovyy,56.1667,91.8167,18.23,63,33,1.89,RU,1624066918
325,Durban,-29.8579,31.0292,16.68,86,79,0.89,ZA,1624066918
326,Zhigansk,66.7697,123.3711,20.56,48,100,2.87,RU,1624066771
327,Lethem,3.3803,-59.7968,23.79,88,24,2.54,GY,1624066919
328,Ponta do Sol,32.6667,-17.1,18.4,53,59,2.94,PT,1624066787
329,Zhanakorgan,43.9098,67.2495,28.09,29,0,4.6,KZ,1624066919
330,Cairns,-16.9167,145.7667,28.86,48,48,4.12,AU,1624066920
331,Banda Aceh,5.5577,95.3222,28.22,72,89,3.17,ID,1624066920
332,Los Llanos de Aridane,28.6585,-17.9182,17.86,69,20,6.17,ES,1624066920
333,Aswān,24.0934,32.907,27.96,21,1,4.34,EG,1624066921
334,Nesbyen,60.5681,9.1027,14.3,65,99,1.46,NO,1624066922
335,Pangai,-19.8,-174.35,26.06,73,20,2.06,TO,1624066922
336,Lucapa,-8.4192,20.7447,15.48,37,40,2.17,AO,1624066922
337,Abalak,58.1286,68.5944,11.06,50,7,4.26,RU,1624066923
338,Marystown,47.1666,-55.1483,10.24,82,93,1.99,CA,1624066923
339,Taitung City,22.7583,121.1444,33.15,55,75,1.03,TW,1624066923
340,Mlonggo,-6.5333,110.7,26.94,73,100,0.53,ID,1624066923
341,Jackson,42.4165,-122.8345,30.93,30,1,5.66,US,1624066841
342,Coahuayana Viejo,18.7333,-103.6833,26.2,87,100,0.6,MX,1624066924
343,Iroquois Falls,48.7669,-80.6831,19.08,55,39,3.94,CA,1624066924
344,Lázaro Cárdenas,17.9583,-102.2,24.75,90,100,4.34,MX,1624066924
345,Nome,64.5011,-165.4064,17.31,70,1,2.57,US,1624066753
346,Cuamba,-14.8031,36.5372,14.84,87,71,0.8,MZ,1624066925
347,Mastic Beach,40.7668,-72.8521,22.4,69,1,2.24,US,1624066925
348,Chapleau,47.8405,-83.4034,17.05,51,75,4.12,CA,1624066925
349,Aklavik,68.2191,-135.0107,25.46,32,100,4.92,CA,1624066789
350,Roblin,51.23,-101.3565,13.2,81,17,2.52,CA,1624066926
351,Esna,25.2934,32.554,26.01,23,3,6.03,EG,1624066926
352,Arona,28.0996,-16.681,16.85,64,75,3.13,ES,1624066926
353,Atikokan,48.7555,-91.6216,12.84,73,24,3.2,CA,1624066927
354,Cabra,37.4725,-4.4421,16.69,72,100,1.16,ES,1624066927
355,Caluquembe,-13.7833,14.6833,11.04,49,7,1.13,AO,1624066927
356,Mahibadhoo,3.7833,72.9667,28.79,73,45,6.07,MV,1624066928
357,Opuwo,-18.0607,13.84,13.5,38,0,2.37,NA,1624066928
358,Knysna,-34.0363,23.0471,9.21,64,37,2.76,ZA,1624066928
359,Mollendo,-17.0231,-72.0147,16.88,90,32,4.22,PE,1624066929
360,Nizhnevartovsk,60.9344,76.5531,6.01,81,90,6.0,RU,1624066929
361,Kryvyi Rih,47.9167,33.35,16.49,94,4,2.0,UA,1624066929
362,Bacungan,9.9106,118.7022,28.03,83,75,2.06,PH,1624066929
363,Bowen,-20.0167,148.2333,21.12,30,2,2.87,AU,1624066930
364,Lüderitz,-26.6481,15.1594,20.37,36,0,3.74,NA,1624066792
365,Carnarvon,-24.8667,113.6333,14.04,43,0,4.63,AU,1624066802
366,Tilichiki,60.4667,166.1,7.71,75,100,2.89,RU,1624066930
367,Wenatchee,47.4235,-120.3103,33.22,18,1,1.34,US,1624066928
368,Son La,21.3167,103.9,28.21,60,12,1.79,VN,1624066931
369,Moyale,3.5167,39.0584,18.31,78,99,5.39,KE,1624066931
370,Belle Fourche,44.6714,-103.8522,28.36,27,0,5.17,US,1624066931
371,Caçu,-18.5567,-51.1308,19.88,43,1,0.99,BR,1624066932
372,Mount Gambier,-37.8333,140.7667,11.95,94,98,5.14,AU,1624066932
373,Oneonta,42.4529,-75.0638,21.79,85,100,4.95,US,1624066932
374,Salihorsk,52.7876,27.5415,14.51,94,4,3.1,BY,1624066933
375,Kemijärvi,66.7131,27.4306,9.59,92,15,3.95,FI,1624066933
376,Verkhnyaya Inta,65.9811,60.3094,8.4,87,100,2.18,RU,1624066933
377,Tuatapere,-46.1333,167.6833,9.34,61,0,1.77,NZ,1624066811
378,Cockburn Town,21.4612,-71.1419,27.29,86,93,10.73,TC,1624066934
379,Kununurra,-15.7667,128.7333,24.99,23,100,7.2,AU,1624066795
380,Harrison,30.4091,-89.0436,24.04,95,90,6.69,US,1624066767
381,Half Moon Bay,37.4636,-122.4286,37.62,63,1,0.45,US,1624066808
382,Muli,2.9167,73.5667,28.9,72,35,5.24,MV,1624066757
383,Havre-St-Pierre,50.2334,-63.5986,16.2,72,90,1.54,CA,1624066934
384,Batagay,67.6333,134.6333,27.04,26,100,1.54,RU,1624066935
385,Yangi Marg`ilon,40.4272,71.7189,21.68,37,0,3.09,UZ,1624066761
386,Catalão,-18.1658,-47.9464,17.08,42,67,2.57,BR,1624066935
387,Sūsangerd,31.5608,48.1831,30.01,18,0,4.86,IR,1624066935
388,Dudinka,69.4058,86.1778,7.45,56,100,5.82,RU,1624066936
389,Kabalo,-6.05,26.9167,21.67,50,97,1.48,CD,1624066936
390,Karratha,-20.7377,116.8463,20.15,46,0,8.11,AU,1624066936
391,Mācherla,16.4833,79.4333,28.58,60,100,8.1,IN,1624066936
392,Bellavista,-7.0561,-76.5911,23.6,94,60,0.58,PE,1624066937
393,Flinders,-34.5833,150.8552,15.6,84,100,10.79,AU,1624066755
394,Terrace,54.5163,-128.6035,15.95,63,75,4.12,CA,1624066787
395,Krasnosel'kup,65.7,82.4667,4.84,94,100,10.43,RU,1624066937
396,Georgiyevka,43.0369,74.7114,22.02,37,0,5.0,KZ,1624066937
397,Oktyabr'skoye,43.0645,44.7417,13.08,100,5,3.0,RU,1624066938
398,Uthal,25.8072,66.6219,28.26,80,23,2.98,PK,1624066938
399,Chu,43.5983,73.7614,24.66,26,61,5.61,KZ,1624066938
400,Derzhavīnsk,51.1,66.3167,12.96,47,0,7.02,KZ,1624066939
401,Horizontina,-27.6258,-54.3078,11.43,80,98,1.94,BR,1624066939
402,Dunedin,-45.8742,170.5036,8.69,75,100,1.65,NZ,1624066667
403,Acaraú,-2.8856,-40.12,24.83,85,50,4.65,BR,1624066939
404,Zhuhai,22.2769,113.5678,32.62,79,40,6.17,CN,1624066940
405,Fayaoué,-20.65,166.5333,25.16,81,26,4.66,NC,1624066940
406,Santa Rosa,14.3122,121.1114,32.27,65,76,4.25,PH,1624066940
407,Shaunavon,49.6501,-108.4181,21.88,44,12,2.41,CA,1624066941
408,Biak,-0.9131,122.8766,27.83,69,67,1.69,ID,1624066941
409,Verkhoyansk,67.5447,133.385,27.43,26,100,2.12,RU,1624066823
410,Sola,-13.8833,167.55,27.52,72,7,5.66,VU,1624066941
411,Kamaishi,39.2667,141.8833,18.53,89,100,3.24,JP,1624066942
412,Kiryat Gat,31.61,34.7642,20.78,81,0,1.25,IL,1624066942
413,Prymors'k,46.7348,36.3443,18.54,87,8,4.26,UA,1624066942
414,Alta Floresta,-9.8756,-56.0861,24.86,57,96,0.25,BR,1624066942
415,Kupino,54.3663,77.2981,7.71,86,100,7.54,RU,1624066943
416,Båtsfjord,70.6345,29.7185,7.0,96,100,4.13,NO,1624066943
417,Deputatsky,69.3,139.9,23.22,29,100,1.72,RU,1624066812
418,Ternate,0.8,127.4,28.67,69,30,1.72,ID,1624066944
419,Paso de los Toros,-32.8167,-56.5167,7.88,75,94,3.29,UY,1624066944
420,Loudi,27.7344,111.9944,23.91,83,100,1.59,CN,1624066944
421,Cap Malheureux,-19.9842,57.6142,20.26,78,9,2.24,MU,1624066944
422,Spirit River,55.7833,-118.8361,19.29,70,71,0.84,CA,1624066945
423,Itiruçu,-13.5317,-40.1503,14.39,98,64,1.32,BR,1624066945
424,Butterworth,5.3991,100.3638,29.44,82,20,0.89,MY,1624066945
425,Avera,33.194,-82.5271,29.93,49,100,3.92,US,1624066642
426,Thabazimbi,-24.5917,27.4116,10.48,83,2,1.55,ZA,1624066946
427,Qaryat Sulūq,31.6682,20.2521,20.06,77,0,3.48,LY,1624066946
428,Taltal,-25.4,-70.4833,15.49,74,0,2.34,CL,1624066946
429,Tegul'det,57.3064,88.1667,22.03,74,91,3.53,RU,1624066801
430,Adrar,20.5022,-10.0711,27.63,19,5,5.65,MR,1624066947
431,Choix,26.7092,-108.3219,32.61,42,2,2.2,MX,1624066947
432,Kuusamo,65.9667,29.1833,12.02,87,75,6.17,FI,1624066948
433,Cândido Mendes,-1.4467,-45.7167,23.19,95,31,2.12,BR,1624066948
434,Vitória da Conquista,-14.8661,-40.8394,15.85,84,74,3.47,BR,1624066948
435,Santa Rosa de Viterbo,-21.4728,-47.3631,19.26,64,28,1.64,BR,1624066949
436,Tsimmerbude,54.675,20.1347,17.03,80,0,3.87,RU,1624066949
437,Lagos,6.5833,3.75,27.18,89,100,1.6,NG,1624066704
438,Caxito,-8.5785,13.6643,23.36,97,10,1.36,AO,1624066949
439,Kawalu,-7.3817,108.2082,25.73,82,100,0.4,ID,1624066808
440,Belmonte,-15.8631,-38.8828,24.28,87,71,3.78,BR,1624066950
441,Mazyr,52.0495,29.2456,14.74,96,0,2.83,BY,1624066950
442,Iwanai,42.9744,140.5089,20.14,63,100,1.49,JP,1624066950
443,Teluknaga,-6.0989,106.6381,29.23,89,75,2.06,ID,1624066951
444,Westport,41.1415,-73.3579,25.42,74,1,1.34,US,1624066951
445,Ribas do Rio Pardo,-20.4431,-53.7592,16.4,80,43,1.99,BR,1624066951
446,Caravelas,-17.7125,-39.2481,20.9,88,100,4.46,BR,1624066951
447,Tangjiazhuang,39.7333,118.45,32.0,15,0,7.8,CN,1624066952
448,Omboué,-1.5746,9.2618,23.78,89,9,3.26,GA,1624066952
449,Talara,-4.5772,-81.2719,20.04,86,8,7.55,PE,1624066952
450,Maracaçumé,-2.0428,-45.9592,22.35,99,30,1.27,BR,1624066953
451,Berlevåg,70.8578,29.0864,6.41,92,100,3.63,NO,1624066953
452,Sivaki,52.6333,126.75,17.44,81,100,6.58,RU,1624066953
453,Ubinskoye,55.3068,79.6802,9.4,98,100,5.69,RU,1624066954
454,San Calixto,8.4021,-73.2074,15.47,97,100,0.95,CO,1624066954
455,Yulara,-25.2406,130.9889,11.91,47,88,6.17,AU,1624066748
456,Broken Hill,-31.95,141.4333,9.84,87,90,7.2,AU,1624066773
457,Bafra,41.5678,35.9069,17.88,81,0,1.97,TR,1624066829
458,Promyshlennyy,67.5833,63.9167,5.52,73,96,4.77,RU,1624066955
459,Astara,38.5,48.6667,15.39,33,0,1.73,AZ,1624066955
460,Kruisfontein,-34.0033,24.7314,10.61,81,37,3.34,ZA,1624066779
461,Coyhaique,-45.5752,-72.0662,-4.03,93,0,3.09,CL,1624066453
462,Rundu,-17.9333,19.7667,9.72,50,0,2.23,NA,1624066955
463,Bonthe,7.5264,-12.505,24.82,89,98,2.27,SL,1624066956
464,Doha,25.2867,51.5333,32.99,28,0,5.14,QA,1624066956
465,Beloha,-25.1667,45.05,16.78,88,8,2.73,MG,1624066956
466,Harper,4.375,-7.7169,25.47,82,72,3.59,LR,1624066957
467,Chadan,51.2833,91.5833,20.91,43,7,1.66,RU,1624066957
468,Krasnoarmeysk,51.0239,45.6969,13.97,85,7,2.89,RU,1624066957
469,Boden,65.8252,21.6886,10.0,65,12,3.55,SE,1624066958
470,Santa Cruz de la Sierra,-17.8,-63.1667,10.7,87,90,3.09,BO,1624066958
471,Santa Vitória do Palmar,-33.5189,-53.3681,9.57,90,5,2.22,BR,1624066799
472,Daokou,35.5639,114.5058,31.58,32,100,3.28,CN,1624066958
473,Tazmalt,36.3868,4.3989,24.19,59,87,3.13,DZ,1624066958
474,Nelson Bay,-32.7167,152.15,16.11,74,100,1.34,AU,1624066959
475,Murgab,37.4966,61.9714,21.93,46,0,2.06,TM,1624066959
476,Dawei,14.0833,98.2,28.21,78,88,1.41,MM,1624066959
477,Abaza,52.655,90.0928,23.38,50,21,0.51,RU,1624066960
478,Hillsboro,45.5229,-122.9898,27.04,46,1,7.2,US,1624066703
479,Soyo,-6.1349,12.3689,22.47,90,27,3.18,AO,1624066960
480,Paranavaí,-23.0731,-52.4653,15.67,81,96,2.62,BR,1624066960
481,Sovetskiy,61.3614,63.5842,11.72,63,80,3.27,RU,1624066961
482,Vostok,46.4856,135.8833,17.84,52,100,3.64,RU,1624066801
483,Codrington,-38.2667,141.9667,13.14,71,33,5.64,AU,1624066776
484,Solnechnyy,50.7214,136.6319,18.83,53,100,3.59,RU,1624066961
485,Eha Amufu,6.6592,7.7596,23.09,96,100,1.74,NG,1624066962
486,Upata,8.0086,-62.3989,21.96,90,33,1.98,VE,1624066962
487,Kavaratti,10.5669,72.642,28.36,75,100,9.95,IN,1624066764
488,Bull Savanna,17.8868,-77.5902,25.47,79,61,4.82,JM,1624066820
489,Abu Samrah,35.3029,37.1841,17.93,74,0,4.46,SY,1624066962
490,Worland,44.0169,-107.9554,31.71,23,1,1.79,US,1624066963
491,Belyy Yar,53.6039,91.3903,18.94,72,0,2.0,RU,1624066963
492,Puerto Madero,14.7208,-92.4215,27.11,100,40,0.0,MX,1624066963
493,Kodīnar,20.7903,70.7031,28.78,76,99,6.71,IN,1624066964
494,Porto Santo,33.072,-16.3415,18.21,63,40,5.66,PT,1624066964
495,Viedma,-40.8135,-62.9967,3.89,91,75,3.0,AR,1624066964
496,Tripoli,32.8752,13.1875,24.47,59,0,4.6,LY,1624066964
497,Champerico,14.3,-91.9167,28.53,79,100,1.09,GT,1624066965
498,Mocuba,-16.8392,36.9856,16.19,98,6,1.31,MZ,1624066965
499,Mishan,45.55,131.8833,19.57,69,72,6.43,CN,1624066965
500,Karaton,-6.3424,106.1045,28.31,76,68,1.23,ID,1624066966
501,Wake Forest,35.9799,-78.5097,25.86,66,1,2.06,US,1624066966
502,Odoyev,53.9393,36.6864,12.91,91,6,2.04,RU,1624066966
503,Pihuamo,19.2499,-103.3828,23.05,80,100,2.1,MX,1624066967
504,Moose Factory,51.2585,-80.6094,16.0,94,90,3.6,CA,1624066967
505,Bitung,1.4451,125.1824,27.47,69,90,2.66,ID,1624066732
506,Plouzané,48.3833,-4.6167,13.18,94,90,0.0,FR,1624066967
507,Xining,36.6167,101.7667,14.56,55,100,1.18,CN,1624066968
508,San Miguel de Cozumel,20.5083,-86.9458,27.84,88,98,1.79,MX,1624066968
509,Niimi,34.9833,133.4667,22.64,81,100,0.33,JP,1624066968
510,Yakeshi,49.2833,120.7333,11.1,96,100,0.98,CN,1624066968
511,Ouésso,1.6136,16.0517,21.31,90,100,0.7,CG,1624066969
512,Rawson,-43.3002,-65.1023,5.03,68,6,7.92,AR,1624066784
513,Hīt,33.6416,42.8251,27.49,29,0,9.02,IQ,1624066969
514,Estelle,29.8458,-90.1067,25.0,85,90,3.09,US,1624066969
515,Englewood,39.6478,-104.9878,29.47,28,75,3.09,US,1624066970
516,Kudat,6.8837,116.8477,27.96,78,20,2.06,MY,1624066727
517,Vila do Maio,15.1333,-23.2167,22.44,85,15,7.66,CV,1624066970
518,Mayumba,-3.432,10.6554,23.0,91,28,2.91,GA,1624066736
519,Rocha,-34.4833,-54.3333,5.99,87,19,1.01,UY,1624066971
520,Erzincan Province,39.75,39.5,14.61,67,0,1.03,TR,1624066971
521,Moundou,8.5667,16.0833,23.65,82,83,1.96,TD,1624066971
522,Fort Myers Beach,26.452,-81.9481,29.45,76,1,0.45,US,1624066706
523,Kirovskiy,45.0917,133.5136,18.96,71,89,4.81,RU,1624066972
524,Nangong,37.3581,115.3744,33.06,16,18,3.04,CN,1624066972
525,Izumo,35.3667,132.7667,23.97,83,75,5.66,JP,1624066972
526,Muisne,0.6,-80.0333,24.69,85,100,4.4,EC,1624066972
527,Durazno,-33.4131,-56.5006,3.84,86,8,3.41,UY,1624066973
528,Goderich,43.7501,-81.7165,21.18,78,4,4.63,CA,1624066749
529,Progreso,21.2833,-89.6667,26.02,87,100,1.27,MX,1624066825
530,Zhangye,38.9342,100.4517,20.05,32,100,0.7,CN,1624066973
531,Yamada,39.4667,141.95,19.13,85,100,3.74,JP,1624066974
532,Pangkah,-6.9858,109.1693,28.58,70,100,0.77,ID,1624066974
533,Yumen,40.2833,97.2,22.9,24,100,1.73,CN,1624066974
534,Santo Antônio do Içá,-3.1022,-67.9397,22.37,99,33,0.91,BR,1624066975
535,Kota Bharu,6.1333,102.2386,28.0,78,20,1.54,MY,1624066975
536,Hervey Bay,-25.2986,152.8535,20.02,53,2,2.24,AU,1624066975
537,Djambala,-2.5447,14.7533,20.58,72,97,1.57,CG,1624066976
538,Vila Franca do Campo,37.7167,-25.4333,16.23,76,77,1.75,PT,1624066775
539,Tomatlán,19.9333,-105.25,26.91,83,100,1.97,MX,1624066976
540,Batagay-Alyta,67.8006,130.4114,25.02,24,100,2.9,RU,1624066976
541,Changli,39.7042,119.1506,32.19,16,0,7.0,CN,1624066977
542,Hurghada,27.2574,33.8129,25.02,36,0,7.72,EG,1624066977
543,Barra de Tecoanapa,16.5167,-98.75,24.32,89,100,3.66,MX,1624066977
544,Maniitsoq,65.4167,-52.9,5.0,72,100,2.49,GL,1624066801
545,Witu,-2.3889,40.4382,24.04,82,96,5.35,KE,1624066978
546,Tura,25.5198,90.2201,23.65,90,99,1.23,IN,1624066831
547,Luanda,-8.8368,13.2343,23.0,94,20,1.54,AO,1624066978
548,Honiara,-9.4333,159.95,28.9,77,68,3.69,SB,1624066790
549,Normandin,48.8333,-72.5321,18.07,77,100,4.63,CA,1624066978
550,Yuma,32.7253,-114.6244,44.09,15,1,5.66,US,1624066719
551,Hollins,37.3413,-79.9431,25.6,75,75,0.45,US,1624066979
552,Maun,-19.9833,23.4167,14.98,44,0,3.6,BW,1624066979
553,Fort Nelson,58.8053,-122.7002,21.77,26,40,3.09,CA,1624066828
554,Padang,-0.9492,100.3543,27.73,58,100,0.7,ID,1624066754
555,Moerai,-22.4333,-151.3333,24.28,84,65,6.69,PF,1624066980
556,Christchurch,-43.5333,172.6333,8.84,82,75,0.89,NZ,1624066880
557,Fukuechō,32.6881,128.8419,23.2,88,75,3.09,JP,1624066980
558,Lingao,19.9103,109.6859,32.7,56,12,6.42,CN,1624066981
559,Sonthofen,47.5167,10.2833,20.21,87,87,0.45,DE,1624066981
560,Dwārāhāt,29.7833,79.4333,17.71,98,100,0.99,IN,1624066981
561,Kenai,60.5544,-151.2583,18.05,52,90,5.14,US,1624066747
562,La Bañeza,42.3003,-5.8977,12.03,95,46,0.56,ES,1624066982
